,Date,Deaths,Injuries,Description,City,State,Latitude,Longitude
0,2000-02-29,1,0,"Shooting of Kayla Rolland: At Buell Elementary School, a 6-year-old boy fatally shot 6-year-old classmate Kayla Rolland. To date, the boy is the youngest documented fatal school shooter. See August 22, 2013 below.",Flint, Michigan,43.01889,-83.69333
1,2000-05-26,1,0,"13-year-old honor student, Nathaniel Brazill, was sent home for throwing water balloons, but returned to his Lake Worth Middle School with a family pistol. He fatally shot teacher Barry Grunow, a popular teacher and Brazill's favorite.",Lake Worth, Florida,26.61972,-80.05861
2,2000-06-28,2,0,"58-year-old Director of the Division of Pathology of the University of Washington Medical Center, Rodger C. Haggitt, was shot dead by 42-year-old Taiwanese emigrant and then-U.S. citizen, Jian Chen, who had just completed his second year of forensic pathology residency training and had been notified of his contract non-renewal (which Chen wrote would dishonor his family). Chen then committed suicide. In 2001 the Rodger C. Haggitt Gastrointestinal Pathology Society was named in memory of Dr. Haggitt.",Seattle, Washington,47.60972,-122.33306
3,2000-08-28,2,0,"36-year-old James Easton Kelly, a PhD candidate in Comparative Literature at University of Arkansas, killed 67-year-old John R. Locke, the English professor overseeing his coursework. Kelly had been dismissed from this PhD program for lack of progress toward his degree. Kelly shot Locke three times before committing suicide in the director's office, which had been isolated by campus police.",Fayetteville, Arkansas,36.0625,-94.1575
4,2000-09-26,0,2,"13 year-olds Darrel Johnson, and Alfred Anderson were initially charged with attempted first-degree murder in the shooting of 15 year-old William Pennington. Pennington, after being shot, managed to gain control of the gun and shoot Johnson in the back. Charges were later reduced to Aggravated Battery.",New Orleans, Louisiana,29.95,-90.08
5,2000-12-01,0,1,"A 15-year-old Junipero Serra High School student who showed off a handgun on campus and threatened to shoot a classmate, ended up accidentally shooting himself, causing minor injuries.",San Diego, California,32.715,-117.1625
6,2001-03-05,2,13,"Santana High School shooting: 15-year-old student, Charles Andrew Williams, killed two students, 14-year-old Bryan Zuckor, and 15-year-old Randy Gordon, at Santana High School and wounded thirteen others. He was arrested and convicted of murder and attempted murder. He was sentenced to life with the chance of parole after serving fifty years.",Santee, California,32.86972,-116.97111
7,2001-03-07,0,1,"14-year-old student, Elizabeth Catherine Bush, wounded fellow student Kimberly Marchese in the cafeteria of Bishop Neumann High School. Bush was released in 2004.",Williamsport, Pennsylvania,41.24444,-77.01861
8,2001-05-16,2,0,40-year-old music instructor and organist James D. Holloway was shot multiple times with a .22-caliber handgun at Pacific Lutheran University by a 55-year-old man from Tacoma. The shooter was not a student or employee of the university and also killed himself. The victim was apparently chosen at random as the shooter had a personal dispute with a different staff member who was not on campus that day.,Parkland, Washington,47.14111,-122.43778
9,2001-03-22,0,5,"18-year-old former student, Jason Hoffman, opened fire at Granite Hills High School, injuring five people. He was convicted of assault and sentenced to prison, where he committed suicide in 2002.",El Cajon, California,32.79833,-116.96
10,2001-03-30,1,0,"17-year-old Donald Ray Burt Jr., fatally shot Neal Boyd, IV with one bullet to the head in a parking lot outside Lew Wallace High School. Burt was sentenced to 57 years in prison.",Gary, Indiana,41.59556,-87.34528
11,2002-01-15,0,2,"17-year-old Vincent Rodriguez, wounded two students at Martin Luther King, Jr. High School in Manhattan, with a semi-automatic pistol. He was retaliating for the victims having harassed his girlfriend. In February 2003, Rodriguez was sentenced to ten years in prison on charges of assault and attempted assault.",New York City, New York,40.71274,-74.005974
12,2002-01-16,3,3,"Appalachian School of Law shooting: Recently dismissed graduate student, 42-year-old Peter Odighizuwa, killed three at the Appalachian School of Law. 42-year-old dean Anthony Sutin, and 41-year-old professor Thomas Blackwell were killed along with 33-year-old student, Angela Dales. Three other students were also wounded. In 2005 Odighizuwa received three life sentences and an additional 28 years without the possibility of parole.",Grundy, Virginia,37.2785417,-82.099972
13,2002-02-20,1,0,"16-year-old Washington High School student, Joseph Johnson Jr., was killed by Phillip D. Jackson Jr., when violence erupted between rival fans in the parking lot, after a basketball game between Vincent High School.",Milwaukee, Wisconsin,43.05,-87.95
14,2002-10-07,0,1,"In the Beltway sniper attacks, one victim of several was 13-year-old Iran Brown, who was wounded as he arrived at Benjamin Tasker Middle School in Bowie, Maryland. His aunt, a nurse who had just dropped him off, rushed him to a hospital emergency room. Despite serious injuries, Brown survived the attack. The shooters, Lee Boyd Malvo and John Allen Muhammad, were later convicted of numerous unrelated murders committed during their killing spree. Muhammad was executed in 2009, while Malvo was sentenced to life in prison.",Bowie, Maryland,38.96472,-76.74444
15,2002-10-28,4,0,"Failing nursing college student and Gulf War veteran, 40-year-old Robert Stewart Flores Jr., killed three assistant professors of nursing at the University of Arizona, 50-year-old Robin Rogers, 44-year-old Cheryl McGaffic, and 45-year-old Barbara Monroe, before turning the gun on himself.",Tucson, Arizona,32.22167,-110.92639
16,2002-10-29,0,1,"A 15-year-old student was shot in the abdomen and wounded inside a basement of Lincoln High School, during an argument with another student. Another 15-year-old student was arrested and charged with attempted murder.",Jersey City, New Jersey,40.71,-74.06
17,2003-04-02,0,1,"A 10th-grader was shot in the leg near Cardozo high school in Columbia Heights, causing a three-hour lockdown at six D.C. public schools while police searched for possible gunmen.",Washington, D.C.,38.9101,-77.0147
18,2003-04-14,1,3,"John McDonogh High School shooting. 18-year-old Steven Williams, and 17-year-old James Tate opened fire with an AK-47 and a handgun in the gymnasium of John McDonogh High School, killing a 15-year-old student and wounding three female students. Williams was sentenced to life imprisonment, and Tate was sentenced to fifteen years.",New Orleans, Louisiana,29.95,-90.08
19,2003-04-24,2,0,"14-year-old student James Sheets, entered Red Lion Area Junior High School armed with his stepfather's pistols. He killed the school's principal, Eugene Segro, before killing himself.",Red Lion, Pennsylvania,39.89889,-76.60639
20,2003-05-09,1,2,"On May 9, 2003, Biswanath Halder, a 62-year-old business school alumnus of Case Western Reserve University, killed a graduate student and wounded a professor and another student using a semi-automatic rifle. He held the building and its nearly 100 occupants hostage for seven hours before being apprehended by a SWAT team. He was sentenced to life in prison.",Cleveland, Ohio,41.48222,-81.66972
21,2003-09-24,2,0,"Rocori High School shooting: 15-year-old John Jason McLaughlin, shot 15-year-old freshman Seth Bartell and 17-year-old senior Aaron Rollins at Rocori High School. Rollins was killed immediately, and Bartell died from his wounds sixteen days later. McLaughlin was sentenced to life in prison with the chance of parole in 2038.",Cold Spring, Minnesota,45.45,-94.433
22,2004-02-02,1,1,"Thomas J. Boykin was acquitted of the murder of 17-year-old James Richardson, a football player at Ballou High School in Southeast Washington. An 18-year-old student was also grazed in the leg by a bullet.",Washington, D.C.,38.9101,-77.0147
23,2004-02-09,0,1,"16-year-old Jon W. Romano in East Greenbush, New York fired at two rounds from a shotgun, before wounding a teacher with a third. He was tackled by the assistant principal and charged with one count of attempted murder.",East Greenbush, New York,42.61222,-73.69944
24,2004-05-07,0,4,"Two students were charged with a school shooting that arose from a dispute after a basketball game at Randallstown High School. Four persons were injured, two seriously. One student was paralyzed from the waist down.",Randallstown, Maryland,39.37528,-76.79667
25,2005-02-08,0,1,An 18-year-old student at Bowen High School was shot in the leg as she left the school around 2:30 p.m.,Chicago, Illinois,41.88194,-87.62778
26,2005-03-02,1,0,"14-year-old Jason Clinard, killed his bus driver, 47-year-old Joyce Gregory, as she stopped to pick him up. Gregory had earlier reported Clinard for using snuff on the school bus. Clinard was given a life sentence. but he has since filed for post conviction relief",Dover, Tennessee,36.48222,-87.84472
27,2005-03-21,10,7,"Red Lake shootings: 16-year-old student Jeff Weise, killed his grandfather and grandfather's companion at their home, where he had been living, at the Red Lake Indian Reservation. He drove to Red Lake Senior High School. Armed with his grandfather's police weapons, Weise killed five students, one teacher, and one security guard, wounding seven others, before committing suicide following a gunfight with police officers.",Red Lake, Minnesota,47.87722,-95.01222
28,2005-07-18,1,2,"After breaking up a fight between a group of youths at Weequahic High School, Special Officer Dwayne Reeves was shot and killed and his partner wounded in the hand by two men who pulled up alongside him in a car. Despite being wounded, Officer Reeves' partner was able to return fire and hit one of the suspects in the stomach. The gunman was convicted of manslaughter and in 2007 was sentenced to 30 years in prison.",Newark, New Jersey,40.72422,-74.172574
29,2005-09-13,0,1,"At Harlan Community Academy High School, a fight broke out between two 15-year-old boys in the gymnasium. Christopher Huff took out a pistol, shooting the other youth in the leg. A police officer on duty at the school arrested the gunman. The suspected shooter was charged as an adult with aggravated battery with a firearm.",Chicago, Illinois,41.88194,-87.62778
30,2005-11-08,1,2,"Campbell County High School shooting: Inside the Campbell County High School office, 15-year-old Kenneth Bartley, shot the school principal, Gary Seale. He shot assistant principals Ken Bruce and Jim Pierce. Bruce later died from his wound. Bartley was sentenced to forty-five years in prison with chance of parole after twenty-nine years.",Jacksboro, Tennessee,36.33139,-84.18889
31,2006-02-23,0,1,"14-year-old freshman Vincent Wayne Leodoro, shot student 16-year-old Joseph Monti, four times in the back with a handgun at Roseburg High School. Leodoro walked away from the school campus, and was confronted near a restaurant by six police officers. He threatened suicide but was persuaded to surrender. He was found guilty of attempted murder and assault in July 2006, and will be held in prison until he turns twenty five years old.",Roseburg, Oregon,43.21806,-123.35611
32,2006-03-14,0,2,"Pine Middle School shooting: In the hallway of Pine Middle School, 14-year-old James Scott Newman, injured two 14-year-old classmates, Alexander Rueda and Kenzie McKeon, with a revolver belonging to his parents. Two students received minor wounds. Newman was subdued by a physical education teacher. The youth was arrested and charged as an adult for attempted murder, use of a deadly weapon and use of a firearm by a minor. He later pleaded guilty to charges of two counts of battery with a deadly weapon, and was sentenced as a juvenile. Newman was sentenced to house arrest until he completed two-hundred hours of community service.",Reno, Nevada,39.52722,-119.82194
33,2006-08-24,2,3,"Christopher Williams, 26, shot his girlfriend's mother, Linda Lambesis, 57 at her home and from there he went to Essex Elementary School where Andrea, his girlfriend, worked. After he arrived at the elementary school, which was not in session at the time, he shot and killed Mary Alicia Shanks, 56, and shot Mary Snedeker, 52, nonfatally. He left the school and allegedly shot Chad Johansen, 26 nonfatally. He then turned the gun on himself, but did not die as a result. Williams was sentenced to life in prison without parole in 2008.",Essex Junction, Vermont,44.49278,-73.10861
34,2006-08-30,1,2,"After shooting and killing his father, 18-year-old teenager Alvaro Castillo went to his high school where he wounded two students. He was reportedly obsessed with the Columbine shootings and had written an email to the current Columbine high school principal before committing his own crime. he was sentenced to life without parole.",Hillsborough, North Carolina,36.07056,-79.10417
35,2006-09-02,3,0,"49-year-old Douglas W. Pennington, killed himself and his two sons, 26-year-old Logan P. Pennington, 24-year-old Benjamin M. Pennington, during a visit to the campus of Shepherd University.",Shepherdstown, West Virginia,39.43194,-77.80611
36,2006-09-17,0,5,"Five Duquesne basketball players were shot early Sunday morning during an apparent act of random violence on campus, leaving three hospitalized — two of them in critical condition.",Pittsburgh, Pennsylvania,40.43972,-79.97639
37,2006-09-22,0,1,"Eugene Huff, 17, and an unnamed 16-year-old male sophomore were arguing at one of Cardozo's entrances.  The fight climaxed when Eugene pulled out a handgun and shot his classmate in the leg.  The shooting was captured on the school's surveillance system and witnesses said they heard as many as seven shots.",Washington, D.C.,38.9101,-77.0147
38,2006-09-27,2,0,"Platte Canyon High School hostage crisis: 53-year-old drifter, Duane Roger Morrison, walked into Platte Canyon High School and took six girls hostage. During the ensuing siege, Morrison sexually assaulted all of the girls. When a SWAT team stormed the classroom, Morrison killed 16-year-old Emily Keyes, then took his own life after being shot and wounded by police.",Bailey, Colorado,39.405,-105.47222
39,2006-09-29,1,0,"Weston High School shooting: At around 8 a.m., 15-year-old freshman, Eric Hainstock, entered Weston High School. He aimed a 20-gauge shotgun at social studies teacher, Chuck Keller, before it was wrestled from him by school custodian, Dave Thompson. Hainstock then shot 49-year-old high school principal, John Alfred Klang, with a .22 caliber revolver. Klang died later that afternoon. Hainstock was charged and convicted of murder, and is serving a life sentence. He will be eligible for parole in 2037.",Cazenovia, Wisconsin,43.52333,-90.19694
40,2006-10-02,6,5,"West Nickel Mines School shooting: 32-year-old milk truck driver, Charles Carl Roberts IV, killed five Amish girls and wounded five others before killing himself in an Amish school in the hamlet of Nickel Mines, in Bart Township, Lancaster County.",Nickel Mines, Pennsylvania,39.95889,-76.08056
41,2006-10-09,0,0,"13-year-old student Thomas White fired one shot from a MAK-90 rifle at a hallway ceiling at Memorial Middle School. The gunshot struck a water pipe, and nobody was injured. He also tried repeatedly to shoot principal Stephen Gilbreth at near-point-blank range as Gilbreth ushered him out of the school. Joplin police say the attempt was foiled by an improperly seated ammunition magazine in the rifle. The principal was not injured. White was tried as an adult on charges of assault and firearms possession, and in 2009 he was sentenced to ten years of prison.",Joplin, Missouri,37.08417,-94.51306
42,2007-01-03,1,0,"18-year-old student Douglas S. Chanthabouly, killed 17-year-old Samnang Kok, in the hallways of Henry Foss High School following a personal disagreement. In 2009, Chanthabouly was sentenced to 23 years in prison on a charge of second-degree murder.",Tacoma, Washington,47.24139,-122.45944
43,2007-03-07,0,1,"During an argument with several non-students and students, a student was shot in the elbow and wounded in the eating area at Centennial High School. The shooting occurred an hour after classes were dismissed, and students in after-school activities were sent home.",Compton, California,33.89667,-118.225
44,2007-04-16,33,23,"Virginia Tech shooting: A 23-year-old student, Seung-Hui Cho, armed with two pistols, a Glock 19 and a Walther P22, killed thirty-two students and faculty members at Virginia Tech and wounded another seventeen students and faculty members in two separate attacks before committing suicide. The first attack was on the second floor of West Ambler Johnston Hall, where he shot a young girl and another student who came to help. He then changed his clothes, recorded multiple videos stating that he ""had to do it for his brothers and sisters"", and made several pictures of himself with hammers, large knives, and guns. He then chained the doors of Norris Hall shut and shot and killed thirty more students and staff. He also shot seventeen more students and staff, wounding them. Six more students were also wounded from non gunshot injuries. He was described as extremely quiet and lonely. During the rampage he wore a black T-shirt, a russet vest, a backwards baseball cap, black military cargo pants, black boots, and grip gloves. The incident is the third deadliest shooting by a lone gunman, and the deadliest school shooting, in modern U.S. history.",Blacksburg, Virginia,37.23,-80.41778
45,2007-09-21,1,1,"Two 17-year-old Delaware State University freshmen were shot on campus. One died 32 days later on October 23, from critical injuries sustained in the attack. A suspected perpetrator, Loyer D. Braden, a freshman from East Orange, New Jersey, was arrested and charged with attempted murder; the charges were dismissed in May 2009.",Dover, Delaware,39.15806,-75.52444
46,2007-10-10,1,5,"At SuccessTech alternative high school in downtown Cleveland, 14-year-old student Asa H. Coon shot two students and two teachers in the halls and classrooms on the fourth floor of the building. Coon then moved to another room on the same floor, where he fatally shot himself.",Cleveland, Ohio,41.48222,-81.66972
47,2007-11-07,0,1,"At Miami Carol City Senior High School, a robber shot a teacher, who had been smoking a cigarette outside of the campus building. The 18-year-old robber stole the teacher's wallet and was later arrested. The teacher survived the shooting.",Miami Gardens, Florida,25.9421222,-80.2699194
48,2008-01-23,0,1,Arkansas State University offensive line-man 20-year Alfred Louis was grazed in the lower left leg when someone fired several rounds from a 9mm handgun at a residence hall. He was treated at a local hospital. Charges were later dismissed against the person accused of firing the shots.,Jonesboro, Arkansas,35.82806,-90.69417
49,2008-02-04,0,1,"At Hamilton High School, a student shot a 16-year-old student in the leg during a classroom argument over rap music. The victim's injury was not life-threatening.",Memphis, Tennessee,35.1175,-89.97111
50,2008-02-08,3,0,"Latina Williams, a 23-year-old nursing student at Louisiana Technical College killed two classmates and herself in a second floor classroom.",Baton Rouge, Louisiana,30.4475,-91.17861
51,2008-02-11,0,1,"43-year-old 11th grade algebra teacher, Sergio Miranda, was shot by 19-year-old Patrick Lively, outside Miami Carol City Senior High School during a robbery but was expected to survive. In 2011, Lively received a life sentence.",Miami Gardens, Florida,25.9421222,-80.2699194
52,2008-02-11,0,1,"Following a feud that started off campus earlier in the week, a 19-year-old senior was shot by a 17-year-old sophomore during a gym class held in the cafeteria with about 75 other students at Mitchell High School, before handing the gun to a coach making no attempt to flee. The victim suffered at least two gunshot wounds and was in critical condition, the suspected shooter was in custody. ""He walked up to him, shot him, and made a statement to the coach that 'It's over now,' "", said principal, Daniel Ware.",Memphis, Tennessee,35.1175,-89.97111
53,2008-02-12,1,0,"Murder of Larry King: 14-year-old Brandon McInerney, shot 15-year-old Lawrence ""Larry"" King, twice in the head in the computer laboratory of E.O. Green Junior High School. McInerney was apprehended in a nearby neighborhood. King, who was openly homosexual, died two days later. McInerney was initially charged with a hate crime, but that charge was dropped. McInerney pleaded guilty to second-degree murder and was sentenced to 21 years in prison.",Oxnard, California,34.19139,-119.1825
54,2008-02-14,6,21,"Northern Illinois University shooting: 27-year-old Steven Kazmierczak, shot multiple people with a shotgun in a classroom of Northern Illinois University, killing five and injuring 21, before taking his own life. Kazmierczak was not enrolled at the university, but had attended in the years prior to the attack.",DeKalb, Illinois,41.93139,-88.75028
55,2008-02-27,0,1,33-year-old James Earl Matthews was shot in the stomach and buttocks as close range with a handgun on the University of Arkansas at little rock campus. He survived. Gerald Pride Jr. was sentenced to 20 years on multiple charges.,Little Rock, Arkansas,34.73611,-92.33111
56,2008-08-14,1,0,"26-year-old Omero Mendez was waiting at the Lakota Middle School campus to pick up his girlfriend's son. He was confronted by 16-year-old Luis F. Cosgaya-Alvarez and two of his friends, driving in an SUV. Cosgaya-Alvarez flashed gang signs at Mendez, and shot him once in the head. Mendez later died of his injuries. Cosgaya-Alvarez was arrested a few days later in Seattle and was charged with murder. Cosgaya-Alvarez pleaded guilty to murder and weapon enhancements, and was sentenced to eighteen years in prison.",Federal Way, Washington,47.317,-122.35
57,2008-08-21,1,0,"At Central High School, 15-year-old Jamar Siler killed 15-year-old Ryan McDonald. In 2011, Siler was sentenced to thirty years in prison after pleading guilty to murder in a plea agreement.",Knoxville, Tennessee,35.9617,-83.9232
58,2008-09-02,0,0,"A 15-year-old student brought a handgun into South High School, and shot two rounds, one into the ceiling and one shattering a trophy case. The student then put the gun to his head. Then Assistant Principal Jeff Lyons talked the student out of doing any harm.",Willoughby, Ohio,41.64583,-81.40972
59,2008-10-16,1,3,"16-year-old Christopher Walker, was killed, and three other teenagers were seriously wounded during a drive-by shooting near Henry Ford High School, soon after classes let out. Three teenagers were arrested and charged in connection with the shooting. The shooter, 15-year-old William Morton, was sentenced to life without parole, and Devon Bell was sentenced to forty-two years of prison.",Detroit, Michigan,42.33139,-83.04583
60,2008-10-26,2,1,"University of Central Arkansas shootings: Four young men fatally shot two students, 18-year-old Ryan Henderson, and 19-year-old Chavares Block, and wounded a 19-year-old campus visitor in the leg, outside the Arkansas Hall dormitory of University of Central Arkansas.",Conway, Arkansas,35.08722,-92.45333
61,2008-11-12,1,0,"15-year-old Amanda Collette, was killed in the hallway at Dillard High School. The shooter, 15-year-old Teah Wimberly, was sentenced to twenty-five years to life on a first-degree murder charge.",Fort Lauderdale, Florida,26.133,-80.15
62,2009-01-09,0,5,"After attendees were leaving a basketball game at Dunbar High School, a truck pulled over and someone inside fired shots at the crowd, wounding five people, three critically. 18-year-old Georgio Dukes, was arrested and charged a week later with five counts of felony aggravated battery with a firearm. Police believe that the attack was gang-related.",Chicago, Illinois,41.88194,-87.62778
63,2009-04-26,0,3,"18-year-old Odane Greg Maye, a former student of Hampton University, followed a 43-year-old pizza delivery man into his former dormitory. Armed with three guns, Maye wounded the delivery man, then the dorm monitor. Lastly, Maye shot himself in a suicide attempt. He survived and was convicted of two charges of malicious wounding, two counts of using a gun in a felony; burglary; and shooting in an occupied building. He was sentenced to fourteen years of prison in November 2009, and was ordered by a judge to pay more than $62,000 in restitution to his victims for lost wages.",Hampton, Virginia,37.034946,-76.360126
64,2009-05-18,1,0,"20-year-old Jabrai Copney, 23-year-old Jason Aquino, and 19-year-old Blayn Jiggetts, of New York City, invited 21-year-old Justin Cosby, of Cambridge, into a Harvard College dormitory. After trying to rob him of a pound of marijuana, they shot him. The victim, Cosby, was pronounced dead early the next day. Copney turned himself in three days later, and was convicted of murder. His partners pleaded guilty to armed robbery and manslaughter. His girlfriend, 21-year-old Brittany Smith, pleaded guilty to accessory after the fact, firearm possession, and misleading a grand jury.",Cambridge, Massachusetts,42.37361,-71.11056
65,2009-05-18,1,0,"15-year-old Larose-Cut Off Middle School student, Justin Doucet, carried his backpack to a restroom, where he put on camouflage clothes and took out a semi-automatic handgun before storming into a nearby classroom. He attempted to shoot a teacher, Jessica Plaisance, but the gun did not fire. He returned to the restroom and shot himself in the head, dying a week later of his wounds.",Larose, Louisiana,29.56722,-90.37611
66,2009-06-16,0,3,"After students were being let out of International Studies Academy on the first day of summer school classes, a man left a car and opened fire, wounding three people, including a 17-year-old female student. An 18-year-old man was arrested for being an accessory in the crime.",San Francisco, California,37.7775,-122.41639
67,2009-09-03,0,1,"A 20-year-old student was wounded in the parking lot of Skyline College after an argument between him and other men. The college campus was placed on lockdown. Three San Francisco residents, 18-year-old Germaine B. Benjamin, 20-year-old Dimaryea J. McGhee, and 18-year-old Jacori W. Bender, were each arrested and charged with felony firearm offenses.",San Bruno, California,37.62528,-122.42528
68,2010-02-05,1,0,"14-year-old student, Hammad Memon, killed 14-year-old Todd Brown at Discovery Middle School as classes were changing. The shooting was possibly related to gang activity. In May 2013, Memon pleaded guilty to the murder and was sentenced to thirty years of prison. After Memon is released from prison, he is likely to be deported to his native Pakistan.",Madison, Alabama,34.715,-86.73972
69,2010-02-19,0,1,"Less than a week after Northern Illinois University solemnly marked the second anniversary of a mass shooting on campus that claimed the lives of five students, the DeKalb school was the scene of further gun violence. 24-year-old NIU student, Brian Mulder, refused entry to 22-year-old Zachary R. Isaacman, when he had tried to follow a female resident into the Stevenson Residence Hall North, where they were living, because he was not a resident. Moments later, while outside the dorm smoking with a friend, Mulder was shot by Isaacman, with a handgun in the leg above the knee. Isaacman tried to flee, but was caught by police within minutes.",DeKalb, Illinois,41.93139,-88.75028
70,2010-02-23,0,2,"At Deer Creek Middle School, 32-year-old Bruco Strong Eagle Eastwood opened fire from a rifle in a parking lot, and wounded two eighth-graders Reagan Webber and Matt Thieu, before being restrained by 57-year-old Math teacher, David Benke, and held until his arrest. The boy's wounds were critical for the four days following the shooting. In October 2011, Eastwood was found not guilty by reason of insanity.",Littleton, Colorado,39.59972,-105.01083
71,2010-05-11,0,1,A West Bladen High School student was shot on campus as students were leaving school for the day. Investigators said the incident started when a fight broke out between two groups of students near the high school's entrance.,Bladenboro, North Carolina,34.54056,-78.79306
72,2010-09-08,0,2,"Two students were wounded in front of Mumford High School by 17-year-old Steven Jamal Hare. He was tried as an adult and charged with assault with intent to kill. In 2012, Hare was sentenced to 27 years in prison.",Detroit, Michigan,42.33139,-83.04583
73,2010-09-28,1,1,"A 19-year-old sophomore student Colton Tooley, wielding an AK-47 and wearing a ski mask, opened fire and then killed himself in a University of Texas library",Austin, Texas,30.26722,-97.74306
74,2010-10-01,1,0,15-year-old student Jose Daniel Cisneros was killed after being shot several times on an athletic field at Alisal High School while walking to school. Police said that the shooting was gang-related.,Salinas, California,36.67778,-121.65556
75,2010-10-08,0,2,"41-year-old Brendan O'Rourke climbed over a fence and opened fire with a handgun in a playground of Kelly Elementary School, which had 230 students; two second-grade female students were grazed in the arms before O'Rourke was subdued by a construction worker. He was found guilty of seven counts of attempted murder and was sentenced to 189 years to life in prison.",Carlsbad, California,33.12194,-117.29694
76,2010-11-29,1,0,"15-year-old Samuel Hengel, took 23 students and a teacher hostage inside a classroom of Marinette High School for five hours. He had stormed into the class, firing with a handgun at a movie projector. Police persuaded Hengel to release the hostages. After officers entered the building, Hengel shot himself in the head. He died the next day.",Marinette, Wisconsin,45.1,-87.63056
77,2010-12-06,0,1,"In a gang-related attack outside Aurora Central High School, a 17-year-old girl was paralyzed. She was one of a group of students outside the school. 20-year-old Luis Enrique Guzman-Rincon, had fired shots from a car trying to hit gang rivals. Guzman-Ricon was sentenced to thirty-five years in prison.",Aurora, Colorado,39.71083,-104.8125
78,2011-01-05,2,2,"At Millard South High School, 18-year-old student, Robert Butler Jr., killed assistant principal Dr. Vicki Kaspar and wounded principal Curtis Case before opening fire at police in the front office area, causing the school nurse to be wounded by gunshot debris. Butler then drove to a parking lot and shot himself as police cornered him.",Omaha, Nebraska,41.25,-96.0
79,2011-03-25,0,1,"Michael Phelps, a 15-year-old suspended student, returned to Martinsville West Middle School with a handgun. In the entrance of the school, Phelps shot 15-year-old Chance Jackson twice in the abdomen, critically wounding him. Phelps fled the school and dropped the handgun; he was arrested shortly after. Jackson had to undergo surgery three times to save his life; he suffers from post-traumatic stress disorder. Phelps was convicted of attempted murder in August 2011, and was sentenced to thirty years in prison and five years of probation.",Martinsville, Indiana,39.42722,-86.42778
80,2011-03-31,1,5,"Multiple gunmen opened fire during a powder puff football game at Worthing High School. One man, an 18-year-old former student named Tremaine De Ante' Paul, died. Five other people were injured.",Houston, Texas,29.76278,-95.38306
81,2011-04-19,0,3,"6-year-old boy took a semi-automatic pistol in his backpack to Ross Elementary, Later that morning as he and more than 40 other kindergartners were having lunch in a crowded cafeteria, the boy accidentally fired the gun as he was showing it off to friends. The boy, as well as another 6-year-old boy and a 5-year-old girl were injured. Houston police say the gun belonged to a friend of the boy's family.",Houston, Texas,29.76278,-95.38306
82,2011-05-23,0,1,"A 14-year-old male student was accused of firing a handgun on the campus of Highlands Intermediate School, wounding one student. The gunman was arrested on suspicion of attempted murder. Two other suspects were arrested in connection with the shooting.",Pearl City, Hawaii,21.40833,-157.96694
83,2011-08-19,0,1,An Albany State University student was shot on campus.,Albany, Georgia,31.58222,-84.16556
84,2011-10-24,0,1,"Cape Fear High School shooting: 15-year-old Catilyn Abercrombie, was shot in the neck with a rifle by fellow student, 15-year-old Charles Underwood, at Cape Fear High School. She was hospitalized for two months in a serious condition. Underwood was arrested and charged with attempted murder. He was convicted of attempted first-degree murder and sentenced to fifteen years in prison.",Fayetteville, North Carolina,35.0525,-78.87806
85,2011-12-08,2,0,"22-year-old, Ross Truett Ashley, part-time business student at Radford University, killed a police officer engaged in an unrelated traffic stop on the campus of Virginia Tech, he then committed suicide in a nearby parking lot.",Blacksburg, Virginia,37.23,-80.41778
86,2011-12-09,0,2,"Two students were shot after school at Harwell Middle School in Edinburg, Texas while trying out for their school's basketball team. The shooting allegedly was done by an adult off campus, who was shooting at a target range.",Edinburg, Texas,26.30417,-98.16389
87,2012-01-10,0,1,"A student opened fire with a handgun at North Forest High School, wounding another student. The shooter said that he had been confronted by three students who had been bullying him and he shot in self-defense. He hit a 16-year-old bystander in the leg. The 18-year-old suspect was charged with aggravated assault with a deadly weapon.",Houston, Texas,29.76278,-95.38306
88,2012-02-23,0,1,"Armin Jahr Elementary School: A 9-year-old boy accidentally set off a firearm in class after slamming his backpack on a desk hitting 8-year-old Amina Kocer-Bowman in the abdomen causing her to spend 8 weeks in a hospital. The boy said he took the gun because he planned to run away from his uncle's house, where he lived, and that he planned to bring a gun with him for protection. The boy's mother, Jamie Lee Chaffin, a felon, eventually pleaded guilty to weapons charges and was sentenced to 14 months in prison. The boy made a plea agreement with Kitsap County prosecutors, taking responsibility for bringing the handgun school to and was sentenced to a year of court-supervised probation.",Bremerton, Washington,47.57,-122.6525
89,2012-02-27,3,3,"Chardon High School shooting: 17-year-old Thomas ""T. J."" Lane, took a semi-automatic handgun and a knife to Chardon High School, where he fired ten shots at a group of students sitting in the cafeteria. He killed three boys and wounded three other students. One 16-year-old died immediately, two others died the following day. Lane was arrested early the next morning while standing near his car. He was charged as an adult with murder, attempted murder, and firearms offenses. In March 2013, he was convicted and sentenced to three life sentences without the possibility of parole.",Chardon, Ohio,41.57917,-81.20444
90,2012-04-02,7,3,"Oikos University shooting: 43-year-old One L. Goh, was accused of shooting dead seven students with a handgun and wounding three others at Oikos University, a Christian college. He fled the scene, stealing a victim's car, and was apprehended hours later nearby. Goh was charged with seven counts of murder. In January 2013, Goh was determined to be mentally unfit for trial and committed for treatment.",Oakland, California,37.80444,-122.27083
91,2012-08-16,0,2,Two Hamilton High School students were wounded in the parking lot of the school. The attack was believed to be gang-related.,Memphis, Tennessee,35.1175,-89.97111
92,2012-08-27,0,1,"15-year-old Robert Gladden, fired two shots with a shotgun inside the cafeteria at Perry Hall School. He hit a 17-year-old senior in the lower back, causing critical wounds. The youth has Down syndrome. Gladden was subdued by two school faculty members, and arrested. In February 2013, he was sentenced to thirty-five years in prison on attempted murder charges.",Perry Hall, Maryland,39.40139,-76.47889
93,2012-09-07,0,0,"A 14-year-old student fired multiple gunshots in a classroom ceiling at Normal Community High School, and was tackled by a teacher. Nobody was injured. The student was arrested and charged with sixteen felony counts.",Normal, Illinois,40.51222,-88.98861
94,2012-10-19,1,0,"18-year-old Banner Academy South student, Terrance Wright, was killed during an attempted robbery. Wright was approached by five would-be robbers as he left the school about 3:40 p.m.. He was shot in the chest as he fought back when one assailant was going through his pockets. Wright had been picked on at his previous high school because he was gay, which led him to transfer to Banner.",Chicago, Illinois,41.88194,-87.62778
95,2012-10-31,0,4,"At a Halloween party on the University of Southern California campus, an argument escalated and 20-year-old Brandon Spencer, used a handgun to shoot rival gang member, Geno Hall, seven times, critically wounding him. Spencer wounded three other people, none were students at USC, they were hospitalized with less serious injuries. Spencer was arrested just minutes after the shooting, which took place outside USC's Grand Ballroom at around 11:30 p.m. In April 2014, he was convicted of attempted murder and sentenced to forty years to life in prison.",Los Angeles, California,34.05,-118.25
96,2012-12-14,28,2,"Sandy Hook Elementary School shooting: 20-year-old Adam Lanza killed twenty-six people and himself. He first killed his mother at their shared home before taking four of her guns and driving to the school, where he killed 20 first-grade children aged six and seven along with six adults, including four teachers, the principal, and the school psychologist. Two other persons were injured. Lanza then killed himself as police arrived at the school.",Newtown, Connecticut,41.4,-73.283
97,2013-01-10,0,2,"16-year-old student, Bryan Oliver, entered a science classroom of Taft Union High School with a shotgun and opened fire, critically wounding 16-year-old student Bowe Cleveland. He shot at but missed another student. The classroom teacher Ryan Heber convinced Oliver, to drop his weapon. He was later arrested. On January 14, he was charged with two counts of attempted murder and assault with a firearm. He was convicted and accepted a plea deal with a sentence of 27 years and 4 months. According to the attorney for the Cleveland family, they were not satisfied with the sentence.",Taft, California,35.1425,-119.45639
98,2013-01-12,0,1,A 16-year-old Osborn High School student was shot and wounded after a basketball game.,Detroit, Michigan,42.33139,-83.04583
99,2013-01-15,0,2,"A 34-year-old gunman wounded an administrator in his office on the fourth floor of Stevens Institute of Business and Arts. The suspected gunman, Sean Johnson, a part-time student, wounded himself in a stairwell. Both the administrator and Johnson were hospitalized in stable conditions. Johnson was convicted of three felony charges, including assault and was sentenced to 60 years in prison.",St. Louis, Missouri,38.62722,-90.19778
100,2013-01-15,3,0,"Two people were killed and a third person was wounded at the parking lot of Hazard Community and Technical College. The third victim, 12-year-old Taylor Cornett, died from her wounds the next day. 21-year-old Dalton Lee Stidham, was arrested and charged with three counts of murder. He was sentenced to life in prison without parole in 2014.",Hazard, Kentucky,37.24861,-83.195
101,2013-01-16,1,0,"A 17-year-old boy, Tyrone Lawson, was killed in a parking lot of Chicago State University. The shooting happened after high school basketball games held on the campus, where Lawson had been a spectator. Police arrested two brothers, Michael McNabb, 33, and Brian Hewlett (under the alias Stephen Gilbert), 30 after the shooting and recovered a weapon.",Chicago, Illinois,41.88194,-87.62778
102,2013-01-22,0,3,"Lone Star College–North Harris shooting: Outside Lone Star College–North Harris, two men got into an argument. One wounded the other. He also wounded a maintenance man, and accidentally shot himself in the leg. The shooter fled into the woods and was arrested hours later. The charges against the initial suspect were dropped and another man was arrested.",Houston, Texas,29.76278,-95.38306
103,2013-01-31,0,2,"A 14-year-old male student was wounded at Price Middle School. The gunman, a 15-year-old student, was believed to be arguing with the other student before using a handgun to shoot him. A teacher was also wounded. Afterward, the gunman was disarmed by a school resource officer and arrested; police charged him with aggravated assault.",Atlanta, Georgia,33.755,-84.39
104,2013-03-18,1,0,"At the University of Central Florida, 30-year-old student James Oliver Seevakumaran pulled a fire alarm at the Tower One dormitory, to attract a crowd. He pointed a handgun at his roommate and threatened to shoot him in their room; he released the roommate, who ran out and called 9-1-1. Seevakumaran then fatally shot himself in the head. Authorities found an assault weapon, a couple hundred rounds of ammunition and four homemade bombs inside his backpack.",Orlando, Florida,28.54,-81.38
105,2013-04-12,0,2,"New River Community College shooting incident: Two women were wounded during a shooting at the campus of New River Community College. 18-year-old Neil Allen MacInnis, was taken into custody. In June 2014, he was sentenced to 38 years in prison.",Christiansburg, Virginia,37.14111,-80.40778
106,2013-04-16,0,3,Three students were injured on the campus of Grambling State University.,Grambling, Louisiana,32.5275,-92.71389
107,2013-04-18,1,0,"Three days after committing the Boston Marathon bombing, while still at large, the brothers Dzhokhar Tsarnaev and Tamerlan Tsarnaev shot and killed Massachusetts Institute of Technology campus police officer Sean Collier in his patrol car near MIT's Ray and Maria Stata Center. About three hours after the MIT shooting and after carjacking a vehicle, Tamerlan died in a gunfight with police in Watertown, Massachusetts. Another officer was seriously wounded. Shot in the neck and hiding in a boat parked nearby, Dzhokhar was arrested 18 hours later, and hospitalized in critical condition. He was sentenced to death in 2015.",Cambridge, Massachusetts,42.37361,-71.11056
108,2013-05-14,0,0,"Allegedly responding to a student fight, a mother of a student fired a weapon on the campus of Ossie Ware Mitchell Middle School. No one was injured.",Birmingham, Alabama,33.51861,-86.81028
109,2013-06-07,6,4,"2013 Santa Monica shooting: 23-year-old John Zawahri, began a killing spree at his home. After killing his 55-year-old father, Samir ""Sam"" Zawahri, and 25-year-old brother, Chris Zawahri, he set the house ablaze. Dressed all in black with body armor and wielding an AR-15-type semi-automatic rifle, Zawahri carjacked 41-year-old Laura Siska, shooting 50-year-old Debra Fine, as she attempted to intervene, before forcing Siska to drive to Santa Monica College. Upon arriving on the college campus, Zawahri began shooting at passing vehicles, including a police car and a city bus, leaving three people with minor injuries. Zawahri next targeted a Ford Explorer, killing the driver, 68-year-old campus groundskeeper, Carlos Navarro Franco, and fatally wounding the passenger, his 26-year-old daughter Marcela Diaz-Franco, a student at the college, who died two days later. 68-year-old Margarita Gomez, who was collecting cans outside the library, died after being shot in the abdomen and chest. Zawahri opened fire on students who were trying to run away. It ended at the college library where he opened fire on students studying for finals, before being fatally wounded in an exchange of gunfire with responding police officers.",Santa Monica, California,34.02194,-118.48139
110,2013-08-22,0,0,"A 5-year-old kindergarten student fired a handgun in his elementary school cafeteria. The Westside Elementary School student brought the gun to school in his backpack. While waiting for the opening bell in the cafeteria, the gun accidentally discharged one time inside the boy's backpack. There was no evidence of harmful intent and nobody was injured. To date, the boy is the youngest documented school shooter.",Memphis, Tennessee,35.1175,-89.97111
111,2013-08-23,1,2,"15-year-old student, Roderick Bobo, was killed during a football game at North Panola High School in what was termed a gang-related shooting. Two others were injured in the shooting. Three men were charged as being responsible for the crime.",Sardis, Mississippi,34.43556,-89.91667
112,2013-08-30,0,1,"A 15-year-old male student was shot at Carver High School, at 2:30 p.m.. He was hospitalized with minor injuries. An 18-year-old male student was apprehended without further incident. The suspected gunman is charged with assault with a deadly weapon inflicting serious injury, carrying a concealed gun, possessing and discharging a firearm, and carrying a firearm onto educational property. The shooting was believed related to a dispute between the suspect and the victim.",Winston-Salem, North Carolina,36.1027639,-80.2604917
113,2013-10-04,0,2,"A 16-year-old student was shot in the hip outside Agape Christian Academy after a fight broke out at 2 p.m.. An innocent bystander was hit by a stray bullet or shrapnel. The two victims were treated for minor injuries. The suspected shooter reportedly fled in a car with several other males, and was not caught.",Pine Hills, Florida,28.58167,-81.46944
114,2013-10-21,2,2,"12-year-old seventh-grade student Jose Reyes opened fire with a handgun at the basketball courts of Sparks Middle School, injuring one student in the shoulder. Michael Landsberry, a teacher and veteran, tried to intervene and was killed by Reyes. Reyes also wounded a student trying to help the teacher. Reyes then committed suicide by shooting himself in the head. The shooting happened before classes, and the school was evacuated and was closed for the week.",Sparks, Nevada,39.55444,-119.73556
115,2013-11-02,0,1,A 21-year-old student was wounded at North Carolina A&T State University. The victim was hospitalized for serious but non-life-threatening injuries. The university was temporarily locked down that night. No suspects are in custody.,Greensboro, North Carolina,36.08,-79.81944
116,2013-11-03,0,2,A Stephenson High School student and a janitor were shot in an apparent confrontation between football team members and a group of teens who were not attending the school. Both were innocent bystanders.,Lithonia, Georgia,33.71278,-84.10583
117,2013-11-13,0,3,"After classes ended, at least one gunman came out of the woods and opened fire on three students as they were walking to their cars at Brashear High School. One student was grazed in the head, another was struck in the neck and shoulder, and a third was hit in the leg and foot. Six people were taken into custody. The shooting is believed to be drug-related.",Pittsburgh, Pennsylvania,40.43972,-79.97639
118,2013-12-04,0,1,"A 15-year-old student was wounded by a 17-year-old student near a soccer field on the campus of West Orange High School. The shooting occurred after a fight broke out between the two students. The 17-year-old suspected shooter was taken into custody several miles away from the school, and is charged with attempted murder, aggravated battery with a firearm, possession of a firearm by a minor and possession of a firearm on school grounds. In October 2014, the shooter was sentenced to twenty-five years in prison.",Winter Garden, Florida,28.56028,-81.58417
119,2013-12-13,2,0,"18-year-old Karl Pierson, shot 17-year-old student Claire Davis in the head, fatally injuring her, in a hallway in Arapahoe High School. Pierson then took his own life. Pierson was armed with a shotgun, three Molotov cocktails, and a machete. His intention was to shoot the librarian who had disciplined him. Claire Davis died from her injuries on December 21, 2013.",Centennial, Colorado,39.590568,-104.869118
120,2013-12-19,0,1,"Four teens (16, 16, 16 and 17 years old) entered Edison High School in what was believed as a gang-initiation process. After accosting a 62-year-old woman about a mile away from school grounds, they found an athletic trainer who taught at Edison High and shot him several times in the leg and stomach.",Fresno, California,36.75,-119.767
121,2014-01-09,0,1,A 16-year-old student was charged with bringing a gun to school at Liberty Technology Magnet High School and shooting a classmate in the thigh. The incident occurred outside the front of the school.,Jackson, Tennessee,35.61444,-88.81389
122,2014-01-13,0,1,"A 14-year-old boy was shot outside of a basketball game at the Hillhouse High School athletic facility, suffering wounds in his hand and leg.[cite]",New Haven, Connecticut,41.31,-72.92361
123,2014-01-14,0,3,"Two people were wounded inside the gymnasium of Berrendo Middle School, at about 8:10 a.m.. An 11-year-old boy and a 13-year-old girl were airlifted to a hospital in Lubbock, Texas in critical condition. The 12-year-old suspected shooter, Mason Campbell, a seventh grade student, was apprehended at the scene after he was talked down by a staff member and dropped the shotgun. A staff member received minor injuries. Campbell was charged with three counts of aggravated battery with a deadly weapon. He was sentenced to a maximum sentence of confinement in a juvenile detention facility until he is twenty one years old.",Roswell, New Mexico,33.38722,-104.52806
124,2014-01-17,0,2,"A student allegedly shot two other students in the gymnasium at Delaware Valley Charter School. Both victims, a male and a female, were shot in the arm. They were taken to a nearby hospital and are in stable condition, police say. Police Commissioner Charles Ramsey said at a news conference that the shooter ran out of the school after the shooting but was taken into custody near his home. 17-year-old Raisheem Rochwell was arrested and charged as an adult for aggravated assault, recklessly endangering another person and firearms offenses. Rochwell was sentenced to two years of juvenile detention.",Philadelphia, Pennsylvania,39.95278,-75.16361
125,2014-01-20,0,1,One person was critically injured at Widener University. The incident occurred around 10 p.m. outside the university sport's complex and led to an 8-hour university lock-down. The suspect was not immediately found.,Chester, Pennsylvania,39.84722,-75.37278
126,2014-01-21,1,0,"A 21-year-old student, Andrew Boldt, was killed in a classroom building on the campus of Purdue University. 24-year-old student Cody Cousins was found guilty of the murder and was sentenced to sixty-five years of prison. In October 2014, Cousins committed suicide in his cell.",West Lafayette, Indiana,40.44194,-86.9125
127,2014-01-24,1,0,A 20-year-old student was killed at South Carolina State University. A 19-year-old was arrested and charged with murder.,Orangeburg, South Carolina,33.49694,-80.86222
128,2014-01-25,1,0,A man was killed at Los Angeles Valley College. Two suspects were arrested in the fatal shooting.,Los Angeles, California,34.05,-118.25
129,2014-01-27,0,1,A group of students at Rebound High School got in an argument in the school's parking lot. One student pulled out a gun and shot another student in the ensuing altercation. An 18-year-old suspect is facing charges of attempted murder.,Carbondale, Illinois,37.726,-89.22
130,2014-01-28,0,1,One student was shot in the leg in an apparent altercation over a gambling debt at Tennessee State University.,Nashville, Tennessee,36.16222,-86.77444
131,2014-01-30,0,1,Three students were fighting in a parking lot of Eastern Florida State College and one pulled out a gun and shot another of the students. All three students claimed self-defense.,Palm Bay, Florida,27.9979222,-80.6700083
132,2014-01-31,0,1,"After a basketball game at North High School, there was gunfire in a parking lot of the school. Six males in a black jeep had come moments before the shooting and returned at the time it happened. A 15-year-old girl was injured by a ricocheting bullet. While officers were gaining control of the area, teachers on the scene led students into the school building for safety.",Des Moines, Iowa,41.59083,-93.62083
133,2014-02-10,0,1,"A 16-year-old student was shot in the stomach on the campus of Salisbury High School during a dispute in the school gym. 17-year-old suspect was charged with assault with a deadly weapon with intent to kill inflicting serious injury, possession of a firearm on school property and discharging a weapon on school property.",Salisbury, North Carolina,35.66833,-80.47861
134,2014-02-10,0,0,"Five shots were fired in the parking lot of Charles F. Brush High School, including one which hit an unoccupied police car. No one was reported to be injured, though a school basketball game was going on at the time.",Lyndhurst, Ohio,41.52139,-81.49028
135,2014-02-12,0,1,A male victim was shot in the back in a possible gang-related drive-by shooting near the University of Southern California. The suspect fled into the University Campus. The victim was last reported in stable condition before being transported to a local hospital.,Los Angeles, California,34.05,-118.25
136,2014-02-22,0,1,"A shooting involving a campus police officer occurred at a Georgia Regents University dormitory complex. A male suspect entered a vehicle and nearly struck an officer, who opened fire. The suspect was taken to Georgia Regents Medical Center with injuries that were not believed to be critical.",Augusta, Georgia,33.467,-81.967
137,2014-03-25,0,0,"An argument between students led to shots being fired in a Benjamin Banneker High School parking lot during the afternoon. Investigators believe multiple people were present when shots were fired, but it was not known how many could face charges for the incident. No one was injured in the shooting.",College Park, Georgia,33.64833,-84.45611
138,2014-04-11,1,0,"After a Friday evening student awards ceremony called ""Grammy Night"", four men who were affiliated with a gang fired into a crowd in the parking lot of East English Village Preparatory Academy. One 19-year-old, Darryl Smith, was fatally shot in the head. Smith was not a student at the academy.",Detroit, Michigan,42.33139,-83.04583
139,2014-05-04,0,1,"Two men fired shots inside a dormitory at Paine College on Sunday, injuring one student in the head. Neither of the suspects were students at the college.",Augusta, Georgia,33.467,-81.967
140,2014-05-05,0,1,An active shooter situation was reported at Paine College on Monday with one person reported to be shot. The suspect was apparently apprehended and in custody. It was the second shooting incident to occur at the college campus in two days.,Augusta, Georgia,33.467,-81.967
141,2014-05-08,0,1,"A person was shot on a student parking lot roof at Georgia Gwinnett College, receiving an injury. The specific cause has not been identified.",Lawrenceville, Georgia,33.95306,-83.9925
142,2014-05-14,0,1,A 14-year-old student was injured during a drive-by shooting in front of John F. Kennedy High School at 8:30 a.m.. He was shot as he was running towards the school campus after a fight took place. The student suffered a serious but stable injury to his leg. Police are searching for a suspect.,Richmond, California,37.93583,-122.34778
143,2014-06-05,1,3,"19-year-old students, Paul Lee and Sarah Williams, and 24-year-old student, Thomas Fowler, were shot inside a hallway of Otto Miller Hall at Seattle Pacific University. Freshman Lee was rushed to Harborview Medical Center but later died. The shooter was subdued with pepper spray and tackled to the ground by student building monitor, Jon Meis, as he paused to reload his shotgun. 26-year-old Aaron Rey Ybarra was arrested at the scene and has been charged with premeditated and attempted murder.",Seattle, Washington,47.60972,-122.33306
144,2014-06-10,2,1,"At around 8:30 a.m. shots were fired at Reynolds High School. 14-year-old freshman Emilio Hoffman was killed, a physical education teacher was injured, and the gunman, 15-year-old Jared Padgett, exchanged gunfire with police officers and then committed suicide in a restroom stall.",Troutdale, Oregon,45.52944,-122.39167
145,2014-09-09,0,1,"Towards the end of the school day, one alternative school student in Miami was shot as a small group of students tussled. The injury was minor, requiring hospitalization, and five young adults were later questioned.",Miami, Florida,25.77528,-80.20889
146,2014-09-11,0,1,"An elementary school teacher with a concealed weapon permit had her gun fire accidentally in a faculty bathroom. The bullet shattered a toilet, and fragments of both the bullet and the porcelain injured her leg.",Taylorsville, Utah,40.655,-111.94944
147,2014-09-27,0,1,"A 20-year-old Indiana State University student was shot by another student on Saturday inside a residence hall. The injuries were not fatal, and a full recovery was expected. The shooter was arrested on the following day.",Terre Haute, Indiana,39.46972,-87.38972
148,2014-09-30,0,1,"Two students got in an argument at Albemarle High School around 7:30 a.m. on Tuesday, and one of the students shot the other twice including once in the leg. The student who committed the shooting was allegedly involved in a stabbing of a football player last year at West Montgomery High School, which is only 20 miles (32 km) away in Mount Gilead, North Carolina. The school had held an active shooter training over the summer, which prepared the school for this incident.",Albemarle, North Carolina,35.35833,-80.19528
149,2014-09-30,0,1,"One student was injured at Fern Creek Traditional High School. The incident occurred around 1 p.m., reportedly after student became enraged in a hallway and pulled out a gun. The student was arrested later that day.",Louisville, Kentucky,38.25611,-85.75139
150,2014-10-03,1,0,"After a homecoming football game, a fatal shooting of 17-year-old Kristofer Hunter, occurred in the Langston Hughes High School parking lot. The assailant, 18-year-old Eric Dana Johnson Jr., turned himself in a week later.",Fairburn, Georgia,33.5625,-84.58139
151,2014-10-24,5,1,"Marysville Pilchuck High School shooting. 15-year-old freshman, Jaylen Fryberg, shot five students in the school cafeteria of Marysville Pilchuck High School, fatally wounding four, before committing suicide.",Marysville, Washington,48.06278,-122.16333
152,2014-11-20,1,3,"At around 12:40 a.m. EST, a gunman opened fired in or near the Strozier Library at Florida State University. Three people suffered gunshot injuries and were taken to a local area hospital. One was in critical condition, another was in good condition, and the third was shortly released after treatment. The gunman, later identified as Myron May, an alumnus from the school, started firing towards responding police officers and was fatally shot by them on the steps of the library.",Tallahassee, Florida,30.455,-84.25333
153,2014-11-20,1,1,Two teens were shot during a fight at Miami Carol City High School. One of the boys died.,Miami, Florida,25.77528,-80.20889
154,2014-12-12,0,4,"Rosemary Anderson High School shooting: A gunman shot three students and a man outside Rosemary Anderson High School in north Portland. A 16-year-old girl was in critical condition, while the others suffered minor injuries. Two men, aged eighteen and twenty-two, were arrested in connection with the shooting.",Portland, Oregon,45.52,-122.68194
155,2015-01-15,0,3,"A 15-year-old boy, a student's father, and a teacher were each injured in the school parking lot at Wisconsin Lutheran High School. The student had unspecified injuries that were treated. The father was shot in the knee and the teacher was grazed in the toe. A 36-year-old man was charged in the shooting.",Milwaukee, Wisconsin,43.05,-87.95
156,2015-01-16,0,2,"Two were injured in gunfire that occurred after a Friday night basketball game. One was injured directly by a bullet, the other by ricocheting glass.",Ocala, Florida,29.18778,-82.13056
157,2015-02-04,0,2,"Two students were shot near the gymnasium of Frederick High School during a junior varsity (JV) boys' basketball game. Approximately two hundred students, staff, and faculty were placed on lockdown for several hours after the shooting while police searched for the suspects. Brandon Earl Tyler, 21, and Chandler Tristan Davenport, 19 were charged with the shooting.",Frederick, Maryland,39.41389,-77.41111
158,2015-02-14,1,0,16-year-old Benito Aguirre was found dead in the parking lot of Tenaya Middle School. The shooting was reported to have occurred after school hours.,Merced, California,37.3,-120.483
159,2015-02-23,0,3,"Two students argued outside the music building at Bethune-Cookman University when one pulled out a gun. Both had guns and it is not disclosed who did the shooting, injuring three students. A reward was offered to help solve this case.",Daytona Beach, Florida,29.19,-81.08944
160,2015-03-30,0,1,"Police said one person has been arrested for a shooting at Pershing Elementary School. The shooting occurred in the parking lot, with a 34-year-old-man being shot in the buttocks.",University City, Missouri,38.66389,-90.32778
161,2015-04-13,1,0,"A faculty member was killed with a rifle in the school library of Wayne Community College. The 20-year-old gunman, Kenneth Stancil, was arrested in Florida the next day. As of January 2017, Stancil, an admitted Neo-Nazi is being investigated for a hate crime. Stancil was later sentenced to life without parole for the murder.",Goldsboro, North Carolina,35.38194,-77.97806
162,2015-04-16,0,1,"A police officer was shot outside a school in a school zone while he was directing school buses into J.B. Martin Middle School, and the suspect was apprehended at the scene.",Paradis, Louisiana,29.87778,-90.43556
163,2015-05-12,0,2,"Police report that a 16-year-old shot five bullets into a school bus and injured two students. Apparently, there was an argument that touched on previous events.",Jacksonville, Florida,30.33694,-81.66139
164,2015-05-24,0,7,"In the early morning hours of Memorial Day weekend, a group of people were at Southwestern Classical Academy in the parking lot. Shots rang out and seven were injured, with two men being apprehended and charged.",Flint, Michigan,43.01889,-83.69333
165,2015-08-27,1,0,22-year-old student Christopher Starks was fatally shot in a student union building at Savannah State University. Justin Stephens was charged with the murder.,Savannah, Georgia,32.08111,-81.09111
166,2015-09-03,1,2,"A man was arguing with at least one other person escalated into a physical fight on the parking lot of Sacramento City College. A man opened fire, killing a 25-year-old student and wounding two others. The shooting suspects: Tevita Kaihea and Charlie Hola (both 19 years old) were not arrested for the shooting until December of that year and in 2018 Kaihea was sentenced to 112 years to life in prison and hola was sentenced to 49 years to life.",Sacramento, California,38.58167,-121.49444
167,2015-09-30,0,1,"A principal was shot in the arm and wounded at Harrisburg High School after an argument with a student. The suspect, 16-year-old Mason Buhl at the school, was taken into custody and was charged with first-degree attempted murder and sentenced to 25 years with 15 years suspended on supervised probation.",Harrisburg, South Dakota,43.42944,-96.69611
168,2015-10-01,10,9,"Umpqua Community College shooting: At around 10:40 a.m. PDT, a gunman, later identified as 26-year-old student Christopher Harper-Mercer, opened fire in a hall on the Umpqua Community College campus, killing eight students and one teacher, and injuring nine others. The gunman later committed suicide after engaging responding police officers in a brief gunfight.",Roseburg, Oregon,43.21806,-123.35611
169,2015-10-09,1,3,"Northern Arizona University shooting: One student died and three others were wounded in a shooting at Northern Arizona University. It is unclear what sparked the shooting, which took place near Mountain View Hall, a dormitory that houses most of the campus' students involved in Greek organizations. An 18-year-old student was arrested and charged with murder and aggravated assault.",Flagstaff, Arizona,35.19917,-111.63111
170,2015-10-09,1,1,One person died and another person was injured after someone opened fire outside a Texas Southern University dorm.,Houston, Texas,29.76278,-95.38306
171,2015-10-22,1,3,One person was killed and three others were wounded in a shooting at an outdoor courtyard at Tennessee State University. The shooting may have stemmed from an argument over a dice game. A suspect has not been identified or arrested.,Nashville, Tennessee,36.16222,-86.77444
172,2015-11-01,1,1,"One person died and another person was injured, after someone opened fire on the campus of Winston-Salem State University. A 21-year-old non-student suspect is sought.",Winston-Salem, North Carolina,36.1027639,-80.2604917
173,2015-11-20,1,0,A 16-year-old student was fatally shot during a fight after school hours that involved multiple people on the campus of Mojave High School.,North Las Vegas, Nevada,36.22861,-115.14667
174,2016-01-22,0,1,A 15-year-old male was shot in the leg and injured during a night-time basketball game at Lawrence Central High School.,Indianapolis, Indiana,39.76861,-86.15806
175,2016-01-29,0,0,"A gunshot was fired during a fight in a stairwell at Franklin High School, and no injuries were reported. Three people were detained.",Philadelphia, Pennsylvania,39.95278,-75.16361
176,2016-02-09,0,4,"Four people, including two students, were injured during a basketball game event in the parking lot of Muskegon Heights High School.",Muskegon Heights, Michigan,43.20111,-86.23889
177,2016-02-12,2,0,Two 15-year-old girls died in an apparent Murder-Suicide at Independence High School.,Glendale, Arizona,33.53861,-112.18639
178,2016-02-29,0,4,"15-year-old Cameron Smith, and 14-year-old Cooper Caffrey, were shot when 14-year-old James Austin Hancock, opened fire in the Madison High School cafeteria with a .380 caliber handgun. 15-year-old Brant Murray, and 14-year-old Katherine Douchette, also suffered shrapnel injuries. Hancock was apprehended in a nearby wooded field.",Middletown, Ohio,39.5,-84.383
179,2016-04-23,1,2,"Two students at a prom at Antigo High School were shot and injured by 18-year-old former student Jakob Wagner. Wagner later exchanged fire with a school resource officer in the school's parking lot, and was captured after being shot and wounded by police. He died hours later in a hospital.",Antigo, Wisconsin,45.14111,-89.15333
180,2016-06-01,3,0,"2016 UCLA shooting. Mainak Sarkar, age 38, a Ph.D. student, killed his former professor, William S. Klug, age 39, a professor of mechanical and aerospace engineering, in an engineering building at UCLA. Sarkar then killed himself. Sarkar, who lived in Minnesota, also killed his ex-wife, Ashley Hasti, age 31, in her Brooklyn Park, Minnesota home.",Los Angeles, California,34.05,-118.25
181,2016-06-08,1,3,One student was killed and three other individuals were injured when gunfire erupted outside of the Jeremiah Burke High School following a fire-alarm causing an evacuation of the school. Two suspects have been arrested.,Dorchester, Massachusetts,42.317,-71.05
182,2016-09-09,1,2,A 14-year-old female student shot a 16-year-old girl in an Alpine High School restroom before committing suicide. A police officer accidentally shot another officer during the incident.,Alpine, Texas,30.36083,-103.66556
183,2016-09-28,2,2,"Townville Elementary School shooting: Two students and one teacher were wounded after a teen opened fire at Townville Elementary School. The suspect's father was found dead at his home soon after the shooting. One of the victims, six-year-old Jacob Hall, died 3 days after the shooting.",Townville, South Carolina,34.56361,-82.89861
184,2016-10-11,0,1,"A student was shot in the abdomen and wounded at Vigor High School. The suspect, a 16-year-old boy, turned himself in and was charged with assault.",Mobile, Alabama,30.69444,-88.04306
185,2016-10-13,0,2,Two students were shot and wounded on the front lawn of Linden McKinley STEM Academy. One was shot in the shoulder and the other shot in the chest; both were hospitalized in stable condition.,Columbus, Ohio,39.96222,-83.00056
186,2016-10-18,0,4,"Four students were shot outside June Jordan High School for Equity, a San Francisco public high school. One female victim was in critical condition, while three male victims suffered minor injuries. Two people were arrested in the shooting.",San Francisco, California,37.7775,-122.41639
187,2016-10-25,0,1,Police say the two teens ages 14 and 16 were involved in a confrontation on the far north end of Union Middle School. The boys got into an argument. The argument lead to a shooting. The 14-year-old shot the 16-year-old twice. He was sent to the hospital in critical but stable condition.,Sandy, Utah,40.5725,-111.85972
188,2016-12-01,0,0,"At Mueller Park Junior High School, a 15-year-old student fired one shot into the ceiling and then pointed the weapon at his own neck. The student was confronted verbally by a teacher and another student and later arrested in possession of a shotgun, a handgun, and ammunition for each and was sentenced to spend time in a Juvenile Justice Services facility.",Bountiful, Utah,40.87972,-111.87167
189,2017-01-20,0,1,"A 17-year-old student was charged with attempted murder and other crimes after bringing a gun to West Liberty-Salem High School and firing two shots at a 17-year-old student in a bathroom with a shotgun. The victim was injured. The student ""also is accused of discharging the weapon in the school's hallway before returning to the bathroom, where he was eventually taken into custody.""",West Liberty, Ohio,40.25417,-83.7575
190,2017-01-20,0,1,A 34-year-old man was shot in Red Square at University of Washington while protesting the visit of controversial journalist Milo Yiannopoulos. The shooter turned himself in to the university police and was later questioned and released without being charged with a crime.,Seattle, Washington,47.60972,-122.33306
191,2017-01-27,1,0,"A 37-year-old Oswego man, named Matthew Lange, was shot at Scullen Middle School, which is a part of Indian Prairie School District 204 at about 7:30 PM. The school is located at 2815 Mistflower Lane, Naperville, Illinois. At the time of the shooting, there were two non-district organizations renting the building out. The victim was waiting to pick his son up from a weekly Polish culture class. He was shot in the head. He was killed through his car window. He was brought to Edward Hospital in Naperville. The City is still seeking answers for the shooters identity over three years later.",Naperville, Illinois,41.76389,-88.17111
192,2017-03-21,0,1,"An 18-year-old King City High School student was shot outside the school's auditorium. The gunman ran across the school's campus and baseball field, and fled the area. The school was then placed on lockdown. The victim was hospitalized with life-threatening injuries. A suspect was arrested in August 2017.",King City, California,36.21278,-121.12611
193,2017-04-10,3,1,"North Park Elementary School shooting: Cedric Anderson, age 53, of Riverside, California, died of a self-inflicted gunshot wound after shooting and killing his estranged wife, Karen Elaine Smith, age 53, in a classroom. An eight-year-old student was also fatally shot, and a seven-year-old student was injured.",San Bernardino, California,34.1,-117.3
194,2017-05-04,2,0,"North Lake College: Adrian Victor Torres killed a 20-year-old student, Janeera Nickol Gonzalez, whom he was stalking. He fatally shot her three times and the college went into lockdown before discovering that the suspect has died from a self-inflicted gunshot wound.",Irving, Texas,32.817,-96.95
195,2017-09-13,1,3,"Freeman High School: Three students were injured and one killed after a shooter opened fire. The suspect was armed with an AR-15 and a Pistol. He shot one student with the AR-15, but the gun jammed so he switched to his pistol. He killed one student after shooting him twice in the stomach and once in the head. He was stopped by a janitor. The suspect, a 15-year-old student, (Caleb Sharpe) was taken into police custody.",Rockford, Washington,47.45083,-117.13278
196,2017-09-20,0,1,"Mattoon High School: A 14-year-old male student was subdued by a female teacher when he attempted to open fire in the school cafeteria at 11:33 a.m. Multiple shots were fired in the process, and one student was struck in the chest and was driven to a nearby hospital suffering non-life-threatening wounds. The student was taken into custody without further incident.",Mattoon, Illinois,39.47889,-88.37306
197,2017-11-13,0,2,Two people were shot on the Albany State University campus.,Albany, Georgia,31.58222,-84.16556
198,2017-11-14,6,18,"Rancho Tehama Reserve shootings: Neighbor on a rampage injured one student at Rancho Tehama Elementary School and fatally shot five adults at several locations. The secretary heard the gunfire near the school and ordered the school to go on lockdown. After a custodian and the teachers put it into action, 43 year-old Kevin Neal rammed a truck into the gate of the school and fired at the classrooms hitting one student when a bullet pierced the wall. Neal fatally shot himself after sheriff's deputies rammed his vehicle during a pursuit.",Rancho Tehama Reserve, California,40.00806,-122.42583
199,2017-12-07,3,0,"Aztec High School shooting: William Atchison, 21-year-old former male student snuck into Aztec High School disguised as a student and hid in an unlocked washroom with a Glock 9mm handgun hidden in his bag. He retreated from the washroom after being spotted by a school custodian who chased him shouting ""active shooter"" and ""lockdown"". Atchinson was able to shoot and kill two students who were caught in the hallway before he killed himself. He had been investigated in 2016 by the FBI when he asked ""where to find cheap assault rifles for a mass shooting"" on an online forum.",Aztec, New Mexico,36.82222,-107.99278
200,2018-01-10,0,0,"A criminal justice club student picked up a loaded gun, belonging to an advisor, which the student thought was an unloaded training weapon. She then shot at a wall target, unintentionally firing a bullet, which went through the wall and broke a window. The advisor was a licensed peace officer permitted to carry a firearm on campus.",Denison, Texas,33.74972,-96.5575
201,2018-01-20,1,0,A student was fatally shot at a party at 1 a.m. on the campus of Wake Forest University.,Winston-Salem, North Carolina,36.1027639,-80.2604917
202,2018-01-22,0,1,A 16-year-old male student fired at a 15-year-old female classmate that he had briefly dated in the cafeteria of Italy High School. The gunman left the school immediately after opening fire and was arrested.,Italy, Texas,32.18278,-96.885
203,2018-01-22,0,1,"Shots were fired from a truck in the parking lot of NET Charter High School, targeting a crowd of students during lunch time. One student was slightly injured, apparently from injuries unrelated to gunfire. One person was arrested in connection with the shooting.",New Orleans, Louisiana,29.95,-90.08
204,2018-01-23,2,18,"Marshall County High School shooting: Gabriel Ross Parker, a 15-year-old male student shot 16 people in the lobby at Marshall County High School and caused non-gunshot injuries to four others. Two 15-year-old students died: one killed at the scene, another died of wounds at Vanderbilt Medical Center.",Marshall County, Kentucky,36.88,-88.34
205,2018-01-31,1,0,"A fight began in the school parking lot outside a basketball game, and the school went into lockdown after shots were fired. A 32-year-old male was transported by private vehicle to Nazareth Hospital with two gunshot wounds in his leg. He was transferred by helicopter to another hospital, but died from his injuries. Police announced that they are searching for an adult male suspect.",Philadelphia, Pennsylvania,39.95278,-75.16361
206,2018-02-01,0,5,"Two 15-year-old students, a boy and a girl, were shot and injured inside a classroom at Sal Castro Middle School, which shares a campus with Belmont High School. Three other people suffered injuries unrelated to gunfire. A 12-year-old girl was arrested and charged with negligent discharge of a firearm.",Los Angeles, California,34.05,-118.25
207,2018-02-05,0,1,"A student was taken to the hospital after exiting Oxon Hill High School and going to speak to individuals in a vehicle who then attempted to rob, and subsequently shot and wounded him in the school's parking lot. Two other students were arrested and charged with attempted murder and robbery.",Oxon Hill, Maryland,38.80306,-76.98972
208,2018-02-09,0,1,Pearl-Cohn High School: A student was shot five times in the parking lot.,Nashville, Tennessee,36.16222,-86.77444
209,2018-02-14,17,17,"Marjory Stoneman Douglas High School shooting: A 19-year-old former student (Nikolas Cruz) whose behavior had led to his expulsion began shooting students and staff members with a  rifle at Marjory Stoneman Douglas High School after activating a fire alarm. Seventeen people were killed, and 17 others were injured. The suspect shot the students on the first and third floor of the complex. The suspected shooter blended in with the crowd of fleeing students and was arrested in a residential area of neighboring Coral Springs after walking away from the school. He was later charged with murder and attempted murder. The suspect had sat down at a McDonald's, then went to a nearby Subway.",Parkland, Florida,26.31528,-80.24056
210,2018-02-24,1,0,Savannah State University: A non-student was shot on campus and later died.,Savannah, Georgia,32.08111,-81.09111
211,2018-02-27,0,1,Mississippi Valley State University: A person was shot in a recreation center. The injury was not life-threatening.,Itta Bena, Mississippi,33.49583,-90.32222
212,2018-02-27,0,1,Norfolk State University: A student was shot from an adjacent dorm room while doing homework. He was not seriously injured.,Norfolk, Virginia,36.917,-76.2
213,2018-03-02,2,0,Central Michigan University shooting: 19-year-old student James Eric Davis Jr. shot and killed his mother and father when they came to campus to take him home for spring break. After the shooting Davis fled and the campus was placed on lockdown. Around 15 hours later police arrested him and took him to a local hospital. The incident disrupted the travel plans of students and campus activities for several days. Davis was charged with two counts of murder and one count of unlawful possession of a firearm used to commit murder however the judge found Davis insane and was put in a Psychiatric facility.,Mount Pleasant, Michigan,43.59778,-84.7675
214,2018-03-07,1,2,"Huffman High School: One student was killed and another injured when shots were fired in the school building, prompting the school to go into lockdown shortly after the bell rang for school dismissal. Law enforcement originally labeled the shooting as ""accidental"". Subsequently, 17-year-old male student Michael Barber was charged with manslaughter and was charged as ""being a certain person forbidden to possess a pistol"". Although the school has metal detectors, they were not being used that day. School resource officers were onsite at the time of the shooting. Barber was sentenced to 12 months in jail.",Birmingham, Alabama,33.51861,-86.81028
215,2018-03-07,0,1,Jackson State University: A student was shot inside a dormitory. His injuries were not life-threatening.,Jackson, Mississippi,32.29889,-90.18472
216,2018-03-08,0,1,University of South Alabama: One person was hospitalized after a shooting on campus.,Mobile, Alabama,30.69444,-88.04306
217,2018-03-09,0,1,"Frederick Douglass High School: A 16-year-old male student unintentionally shot himself with a gun he had smuggled into a classroom, sustaining an injury to his left thumb. Police announced they were charging him with wanton endangerment and possession of a weapon on school property. After the shooting, the school superintendent announced that stationary metal detectors would be installed and all students would be required to enter through them.",Lexington, Kentucky,38.02972,-84.49472
218,2018-03-13,0,1,"Seaside High School: A teacher accidentally discharged a firearm while teaching a public safety class, injuring one student.",Seaside, California,36.61111,-121.84472
219,2018-03-20,2,1,"Great Mills High School: The school was placed on lockdown after a shooting occurred in the morning. A 17-year-old male student, armed with a handgun, shot and fatally injured a female student (with whom he had a prior relationship) and wounded a male student. The student shot himself in the head, fatally, while the school resource officer simultaneously shot at him.
",Great Mills, Maryland,38.23667,-76.49722
220,2018-04-12,0,1,South Middle School: A man was shot in the stomach in the parking lot during a track meet.,Raytown, Missouri,38.995,-94.46556
221,2018-04-20,0,1,"Forest High School: A student shot through the door of the school with a Sawed-off shotgun shortly before a national school walkout for gun control measures. The student had recently dropped out and had planned a much more serious school shooting. His injuries were not life-threatening. Sky Bouche, the 19-year-old former student was arrested.",Ocala, Florida,29.18778,-82.13056
222,2018-05-11,0,1,"Highland High School: A 14-year-old former student allegedly fired a semi-automatic rifle shortly before classes were to begin. A 15-year-old was struck in the shoulder but went into surgery and was expected to recover fully. The suspect ditched the gun in a field and was arrested nearby, and faces a charge of attempted murder.",Palmdale, California,34.58111,-118.10056
223,2018-05-16,0,1,"Dixon High School: A 19-year-old student recently kicked off the football team allegedly fired shots prior to graduation rehearsal. A school resource officer shot the suspect, who suffered non-life-threatening injuries.",Dixon, Illinois,41.84611,-89.485
224,2018-05-18,10,13,"Santa Fe High School shooting: The school was evacuated when fire alarms were pulled at 7:45 am after students said they had heard gunshots. The shooter (Dimitrios Pagourtzis) started in the art room, then went through the art hallway. The shooter had a Remington 870 shotgun and a .38 caliber revolver. Multiple IEDs, pressure cookers, Molotov cocktails, pipe bombs, propane tanks, and other homemade explosives were also found around the school and parking lot.",Santa Fe, Texas,29.38056,-95.10417
225,2018-05-18,1,3,Mount Zion High School: An argument led to a shooting in a parking lot after a high school graduation ceremony for graduates of Perry Learning Center. Mount Zion High School provided overflow parking for people attending the ceremony.,Jonesboro, Georgia,33.52444,-84.35417
226,2018-05-25,0,2,"Noblesville West Middle School shooting: Two people were shot and injured in a shooting at Noblesville West Middle School in Noblesville, Indiana. The shooter is an unnamed middle school student who exited his science classroom and re-entered with a gun. When he returned, he shot a female student and the science teacher, identified as Jason Seaman. Seaman was shot in the abdomen, hip, and forearm. The gun was wrestled away by Seaman after both he and the female student were shot.",Noblesville, Indiana,40.05,-86.02139
227,2018-08-04,1,0,"19-year-old Thailek Jacob Willis was found in a car in the parking lot of Edgewood High School suffering from a gunshot wound to the upper torso and later died at a local hospital. 15-year-old Jaylin Jerome Brown and 16-year-old Yasin Wallace Powell were later charged with murder and armed robbery as they each were accused of shooting the victim in after attempting to rob him during a drug deal. Brown was found guilty and convicted of second-degree murder, first-degree assault, use of a firearm in the commission of a felony or violent crime, and the possession of a firearm by a person under age 21 and Powell plead guilty to armed robbery and use of a handgun in a fellony and was sentenced to 20 years in prison with all but five years suspended.",Edgewood, Maryland,39.41861,-76.29444
228,2018-08-17,0,2,"Two people were shot and injured at a football game in Palm Beach Central High School in Wellington, Florida.",Wellington, Florida,26.655,-80.25417
229,2018-08-20,0,0,A shootout erupted on the campus of Georgia State University the night before classes started.,Atlanta, Georgia,33.755,-84.39
230,2018-08-30,0,1,"One student was injured when two students were joking around about guns, and one student discharged a firearm at Balboa High School in San Francisco, California. 4 students were arrested in this incident, and 2 were allowed to go back to school. The school was on lockdown along with three other schools in the area for two hours.",San Francisco, California,37.7775,-122.41639
231,2018-09-05,1,1,"William Parsons, a 15-year-old student at Central High School, was shot and killed outside Providence Career and Technical Academy in Providence, Rhode Island. Police said that two young men got into an altercation and shots were fired, hitting the victim, who was uninvolved. The 16-year-old shooter Joel Leocra accidentally shot and injured himself while trying to get away, under a mile from the scene. Leocra was sentenced to life in prison plus 10 years and must serve at least 25 years before being eligible for parole.",Providence, Rhode Island,41.82361,-71.42222
232,2018-09-10,0,1,A teen girl was injured after shots were fired into school bus full of students attending Fairley High School.,Memphis, Tennessee,35.1175,-89.97111
233,2018-09-11,1,0,"18-year-old student Dalvin Brown was shot at Canyon Springs High School near the baseball field and later died of his injuries at a hospital. 16-year-old Kayin French was arrested in connection to Brown's death shortly after the incident. His trial was scheduled for February 3, 2020.",North Las Vegas, Nevada,36.22861,-115.14667
234,2018-10-29,1,1,"A David W. Butler High School freshman, 16-year-old Jatwan Craig Cuffie, fatally shot sophomore Bobby McKeithen. Cuffie is in custody and charged with first-degree murder. Cuffie was sentenced to 80 to 108 months in prison after pleading guilty to manslaughter.",Matthews, North Carolina,35.11694,-80.71639
235,2018-12-13,1,0,"14-year-old Brandon Clegg attempted a shooting on Dennis Intermediate School. He took two guns and threatened to kill his mother's ex-boyfriend if he did not drive him to the school. After his mother called 911, police arrived just before he was able to begin his attack. After exchanging shots with officers, Clegg shot his way through a locked glass door and entered the school, where he continued to shoot at officers. After he was cornered in one of the school's stairwell, Clegg committed suicide by shooting himself.",Richmond, Indiana,39.83028,-84.89056
236,2019-01-02,0,0,"School resource officer Dana Jackson, assigned to Snyder High School, was cleaning his service weapon when it discharged. No injuries were reported. Jackson was removed from his assignment at the school.",Jersey City, New Jersey,40.71,-74.06
237,2019-01-03,0,0,"Two men were involved in an altercation on the campus of Florida International University when one of the men pulled out a gun and fired into the air. Both men were detained, and no injuries were reported.",Miami, Florida,25.77528,-80.20889
238,2019-01-04,0,1,"A former student at the Mississippi University for Women was shot and injured, causing a multi-hour lockdown and a search for a gunman. Police stated they were investigating whether the wound was self-inflicted. No one has been detained in relation to the crime.",Columbus, Mississippi,33.50167,-88.415
239,2019-01-07,1,0,"Seventeen-year-old Mohammad Othman was fatally shot in the parking lot of Central Elementary School. Police believe the shooter had a connection to Othman, but neither the shooter nor Othman had a relation to the elementary school.",Belmont, California,37.51806,-122.29167
240,2019-01-11,1,0,"A man involved in a custody battle arrived at Cascade Middle School and became enraged. As he was being escorted from the school by police, he began struggling and pulled a gun, according to authorities. The man was shot and killed by the officers. No one else was injured.",Eugene, Oregon,44.05194,-123.08667
241,2019-01-19,0,2,"A 16-year-old boy was shot in the head, and a 15-year-old boy was also injured, in a possible robbery incident in a parking lot of Lakewood Middle School in Overland Park, Kansas. The school was not in session at the time. Both victims are expected to recover.",Overland Park, Kansas,38.98222,-94.67083
242,2019-01-25,0,2,"Two males were wounded after basketball game at Davidson High School, but between Blount High School and Murphy High School, the 15-year-old suspect fled the scene before law enforcement arrived and was not arrested until February 8. His mother was arrested for harboring a fugitive.",Mobile, Alabama,30.69444,-88.04306
243,2019-01-30,0,1,"A man running on the Miller Grove High School track saw someone trying to break into his car, which was parked on school property. When the man confronted the person breaking into his car, he was shot once. The man was taken to a local hospital and listed in stable condition.",Lithonia, Georgia,33.71278,-84.10583
244,2019-01-30,0,0,"Shots were fired at Prairie View A&M University's Village 1 basketball court, according to officials. No injuries were reported. Officials are still searching for suspects.",Prairie View, Texas,30.08222,-95.99167
245,2019-01-31,0,1,"At Manassas High School, a 14-year-old student was shot by a pellet gun.",Memphis, Tennessee,35.1175,-89.97111
246,2019-01-31,0,1,"Seventeen-year-old Mikael Neciosup, a student at Atascocita High School, was arrested after shooting a 16-year-old classmate who was trying to buy marijuana from him. The victim suffered wounds to the foot and torso which were not life-threatening. Neciosup posted Snapchat videos mocking deputies and bragging about the shooting as he was being arrested. He was charged with aggravated assault and is being held on bond.",Humble, Texas,29.995,-95.265
247,2019-02-08,0,1,"A 25-year-old was confronted by an adult staff member of Frederick Douglass High School as to his purpose on being on school grounds. In response, the gunman shot and injured the staff member.",Baltimore, Maryland,39.28944,-76.61528
248,2019-02-12,1,0,"During a basketball game at the Central Academy of Excellence, an argument between two groups led to the groups being escorted out in a staggered fashion. However, as the second group was being escorted out 15-year-old Anjanique Wright in the group was shot and later pronounced dead at the hospital. Two female students (Jamya D. Norfleet, 21 and Taylor McMillon, 18) were charged with her murder. Norfleet is scheduled to go to trial in October 2020 and McMillon is scheduled for trial in March 2020.",Kansas City, Missouri,39.09972,-94.57833
249,2019-02-14,0,0,"Sixteen-year-old student Joshua Owen discharged a single shot in the hallway of Cleveland High School prior to classes beginning. The school was evacuated to a soccer field and then to a nearby arena where students were reunited with their parents. Authorities have not commented on whether Owen was targeting anyone or a possible motive. Owen faced charges of attempted murder, unlawful carrying of a deadly weapon, and unlawful possession of a handgun. Owens suffers from mental illness and was found not fit to stand trial. No injuries were reported.",Rio Rancho, New Mexico,35.28611,-106.67056
250,2019-02-17,1,0,"Two adult men in an ongoing dispute about a parking space agreed to meet at Eaglecrest High School to settle the dispute. During the argument, 31-year-old Marcus Johnson produced a handgun and shot 46-year-old Anthony ""T.J."" Cunningham. Johnson then fled the campus, returned home and called 911 to report the shooting. He was arrested when deputies arrived at his home. Cunningham, a former CU football player drafted by the Seattle Seahawks, died the next day of his wounds. Johnson is charged with first-degree murder.",Arapahoe County, Colorado,39.64,-104.33
251,2019-02-26,0,1,"At Robert E. Lee High School, Michael Woods a 17-year-old student was shot and wounded in the arm. The gunman, a fellow student, had previously shot another student at the school in less than a two-year period.",Montgomery, Alabama,32.36167,-86.27917
252,2019-02-28,0,0,"A 17-year-old student at Cheyenne South High School fired a gun toward an unoccupied vehicle in the school parking lot, shattering its window. The student was arrested on suspicion of discharging a firearm in city limits, misdemeanor possession of marijuana, felony burglary, and larceny. No injuries were reported.",Cheyenne, Wyoming,41.14,-104.82028
253,2019-03-07,0,1,A Grambling State University student was injured after an accidental discharge in a dorm by a friends gun.,Grambling, Louisiana,32.5275,-92.71389
254,2019-03-22,0,1,"A substitute teacher at Blountsville Elementary School, unlawfully brought a small-caliber weapon into the classroom, which discharged while in his pocket. One student reportedly had minor injuries, and the substitute was arrested.",Blounstville, Alabama,34.08167,-86.58861
255,2019-03-27,0,1,"A 10-year-old student was struck in the hand by gunfire that some claim was fired by another student on the bus, while school district officials claim it was a drive-by shooting.",Holmes County, Mississippi,33.12,-90.09
256,2019-04-01,0,1,"A 14-year-old male student with a concealed weapon shot a 14-year-old classmate at Prescott High School in what police described as a ""premeditated attack"". The victim was airlifted to a nearby hospital and is in stable condition. The shooter was apprehended by school resource officers. the shooter was charged as a juvenile",Prescott, Arkansas,33.8025,-93.38194
257,2019-04-25,0,3,"At College of the Mainland, a police cadet student, 21-year-old Clayton Whatley, reached into his backpack and accidentally discharged a loaded handgun.  Two other students were shot in the leg, and a third was grazed.",Texas City, Texas,29.4,-94.93389
258,2019-04-25,0,10,At a teen armed with a pellet gun fired at Wynbrooke Elementary School inflicting minor injuries on 10 children,Stone Mountain, Georgia,33.80806,-84.17028
259,2019-04-30,2,4,"University of North Carolina at Charlotte shooting: A shooter on the University of North Carolina at Charlotte campus killed two and injured four on the last day of classes. Riley Howell, a student in the classroom, was credited with stopping the shooter.",Charlotte, North Carolina,35.22722,-80.84306
260,2019-05-04,1,0,A 21-year-old Lane Community College student was killed outside a fraternity house at the University of Oregon.,Eugene, Oregon,44.05194,-123.08667
261,2019-05-06,0,0,A person shot through a window of an elementary school bus with 11 kids inside.,Riverview, Florida,27.86556,-82.32361
262,2019-05-07,1,8,STEM School Highlands Ranch shooting: Two shooters killed 1 student and injured 8 others at STEM School Highlands Ranch.,Highlands Ranch, Colorado,39.5419358,-104.9707643
263,2019-05-07,0,1,A man who was not a student at Savannah State University shot and wounded a student at a residence hall.,Savannah, Georgia,32.08111,-81.09111
264,2019-05-08,0,1,A 19-year-old student was shot in the neck and jaw at Second Chance High School when he and two friends were leaving the school by 18-year-old student Andres Salazar who was driving a car. Salazar was charged with Attempted first-degree murder and aggravated battery with a firearm.,Chicago, Illinois,41.88194,-87.62778
265,2019-05-17,0,1,"Arthur Davin Jones III, a 19-year-old student shot Shamon Micken, a 16-year-old student at Raines High School. Jones fled the state and was arrested days later in Georgia. Jones is being charged with attempted murder and pled not guilty.",Jacksonville, Florida,30.33694,-81.66139
266,2019-06-21,0,1,"During a basketball competition in the gym of Carman-Ainsworth High School during a fight involving dozens of people, shots were fired and Eithan Williams, a 15-year-old student was hit in the chest. Williams left the hospital four days later and doctors said he was lucky to be alive. Four students aged 14–16 were arrested.",Flint, Michigan,43.01889,-83.69333
267,2019-07-02,0,1,"At Williwaw Elementary School, a fight broke out on the basketball court which resulted in a teen being shot and injured.",Anchorage, Alaska,61.217,-149.9
268,2019-07-19,0,0,"At Monroe Clark Middle School, a teen fired a BB gun at the school, causing minor damage to the campus, then fled the scene, nobody was killed or injured in the incident.",San Diego, California,32.715,-117.1625
269,2019-08-08,0,0,"38-year-old Isaiah Johnson, dropped his son off at Blount Elementary School, and then got into an argument with another father over a traffic dispute. He discharged a firearm into the father's vehicle.",Montgomery, Alabama,32.36167,-86.27917
270,2019-08-27,1,0,A student was standing in the lunch line was struck in the jaw by a bullet fired from off campus.,Los Angeles, California,34.05,-118.25
271,2019-08-30,0,1,"As spectators were leaving a football game Central Catholic High School. a 16-year-old boy was shot by another teen, neither of the students attended Central Catholic High School and no fights happened before the shooting, no arrests were made.",Toledo, Ohio,41.66556,-83.57528
272,2019-08-31,0,10,17-year-old Deangelo Dejuan Parnell shot 9 people during a confrontation at a stadium where a high school football game was being played. A tenth person suffered a stroke.,Mobile, Alabama,30.69444,-88.04306
273,2019-09-06,1,0,"Near the end of a football game at Jeannette High School, Damien Williams and Greg Harper got into an argument outside the stadium, the argument escalated to the point where Williams was shot in the chest by Harper after Williams allegedly punched Harper twice. Williams died and Harper is charged with homicide and reckless endangerment. Harper pled not guilty and is claiming he acted in self-defense.",Pittsburgh, Pennsylvania,40.43972,-79.97639
274,2019-09-13,0,3,"After a football game at the school stadium, shots were fired and three teens ages 14 and 19 were injured. No arrests have been made.",Newport News, Virginia,37.07083,-76.48444
275,2019-09-14,0,2,"As a youth football game was happening at Eastern Hills High School, parents got into a fight and shots were fired, injuring a woman and her 12-year-old daughter. Thirty-nine-year-old Chanita Holly was arrested and charged with making terroristic threats; a man who was reportedly wearing a skeleton mask is also a suspect in the incident and is believed to be the trigger man.",Fort Worth, Texas,32.75,-97.333
276,2019-09-20,0,2,"During the second quarter of a football game between Imhotep Institute Charter High School and Mastery Gratz high school at Marcus memorial stadium, multiple gunshots were fired, a 15-year-old was shot in the thigh and a 14-year-old in the foot. The Police said multiple shell casings were found but it is unclear if the shooting happened in or outside the stadium. No supsects have been arrested.",Philadelphia, Pennsylvania,39.95278,-75.16361
